lat,lon,city,nudge_x,nudge_y
41.84,-87.68,Chicago,0,0.1
38.64,-90.24,Saint Louis,0,0.1
36.13,-95.92,Tulsa,0,0.1
35.47,-97.51,Oklahoma City,0,0.1
35.2,-101.82,Amarillo,0,0.1
35.12,-106.62,Albuquerque,0,0.1
35.19,-111.62,Flagstaff,0,0.1
34.11,-118.41,Los Angeles,0,0.1
34.01,-118.49,Santa Monica,0,0.1
