lat,lon,city
21.03,105.84,Ha Noi
20.84,105.33,Hoa Binh
19.81,105.78,Thanh Hoa
18.68,105.67,Vinh
16.83,107.11,Dong Ha
16.48,107.58,Hue
13.09,109.3,Tuy Hoa
11.96,108.44,Da Lat
10.78,106.69,Ho Chi Minh City
