lat,lon,city,nudge_x,nudge_y
38.26,140.89,Sendai,0,0.1
37.05,140.88,Iwaki,0,0.1
35.67,139.77,Tokyo,0,0.1
34.98,138.39,Shizuoka,0,0.1
35.15,136.91,Nagoya,0,0.1
35.01,135.75,Kyoto,0,0.1
34.68,135.5,Osaka,0,0.1
